{"type": "FeatureCollection", "features": [{"geometry": {"type": "Point", "coordinates": [-87.6277394859, 41.8739580629]}, "type": "Feature", "id": 0, "properties": {"latitude": 41.873958, "dpcapacity": 19.0, "id": 5.0, "longitude": -87.627739, "name": "State St & Harrison St"}}, {"geometry": {"type": "Point", "coordinates": [-87.65268082, 41.93250008]}, "type": "Feature", "id": 1, "properties": {"latitude": 41.9325, "dpcapacity": 19.0, "id": 13.0, "longitude": -87.652681, "name": "Wilton Ave & Diversey Pkwy"}}, {"geometry": {"type": "Point", "coordinates": [-87.651073, 41.858086]}, "type": "Feature", "id": 2, "properties": {"latitude": 41.858086, "dpcapacity": 15.0, "id": 14.0, "longitude": -87.651073, "name": "Morgan St & 18th St"}}, {"geometry": {"type": "Point", "coordinates": [-87.6564866473, 41.8581806068]}, "type": "Feature", "id": 3, "properties": {"latitude": 41.858181, "dpcapacity": 15.0, "id": 15.0, "longitude": -87.656487, "name": "Racine Ave & 18th St"}}, {"geometry": {"type": "Point", "coordinates": [-87.672516, 41.910329]}, "type": "Feature", "id": 4, "properties": {"latitude": 41.910329, "dpcapacity": 15.0, "id": 16.0, "longitude": -87.672516, "name": "Wood St & North Ave"}}, {"geometry": {"type": "Point", "coordinates": [-87.67273, 41.90332]}, "type": "Feature", "id": 5, "properties": {"latitude": 41.90332, "dpcapacity": 15.0, "id": 17.0, "longitude": -87.67273, "name": "Wood St & Division St"}}, {"geometry": {"type": "Point", "coordinates": [-87.660996, 41.869417]}, "type": "Feature", "id": 6, "properties": {"latitude": 41.869417, "dpcapacity": 15.0, "id": 19.0, "longitude": -87.660996, "name": "Loomis St & Taylor St"}}, {"geometry": {"type": "Point", "coordinates": [-87.65349723, 41.90959193]}, "type": "Feature", "id": 7, "properties": {"latitude": 41.909592, "dpcapacity": 15.0, "id": 20.0, "longitude": -87.653497, "name": "Sheffield Ave & Kingsbury St"}}, {"geometry": {"type": "Point", "coordinates": [-87.65478743, 41.87772613]}, "type": "Feature", "id": 8, "properties": {"latitude": 41.877726, "dpcapacity": 15.0, "id": 21.0, "longitude": -87.654787, "name": "Aberdeen St & Jackson Blvd"}}, {"geometry": {"type": "Point", "coordinates": [-87.6554864, 41.8694821]}, "type": "Feature", "id": 9, "properties": {"latitude": 41.869482, "dpcapacity": 15.0, "id": 22.0, "longitude": -87.655486, "name": "May St & Taylor St"}}, {"geometry": {"type": "Point", "coordinates": [-87.637715, 41.902924]}, "type": "Feature", "id": 10, "properties": {"latitude": 41.902924, "dpcapacity": 15.0, "id": 23.0, "longitude": -87.637715, "name": "Orleans St & Elm St"}}, {"geometry": {"type": "Point", "coordinates": [-87.62062, 41.89186]}, "type": "Feature", "id": 11, "properties": {"latitude": 41.89186, "dpcapacity": 15.0, "id": 24.0, "longitude": -87.62062, "name": "Fairbanks Ct & Grand Ave"}}, {"geometry": {"type": "Point", "coordinates": [-87.62351, 41.89766]}, "type": "Feature", "id": 12, "properties": {"latitude": 41.89766, "dpcapacity": 23.0, "id": 25.0, "longitude": -87.62351, "name": "Michigan Ave & Pearson St"}}, {"geometry": {"type": "Point", "coordinates": [-87.6173, 41.89102]}, "type": "Feature", "id": 13, "properties": {"latitude": 41.89102, "dpcapacity": 23.0, "id": 26.0, "longitude": -87.6173, "name": "McClurg Ct & Illinois St"}}, {"geometry": {"type": "Point", "coordinates": [-87.6435, 41.91021]}, "type": "Feature", "id": 14, "properties": {"latitude": 41.91021, "dpcapacity": 19.0, "id": 27.0, "longitude": -87.6435, "name": "Larrabee St & North Ave"}}, {"geometry": {"type": "Point", "coordinates": [-87.64332, 41.91468]}, "type": "Feature", "id": 15, "properties": {"latitude": 41.91468, "dpcapacity": 15.0, "id": 28.0, "longitude": -87.64332, "name": "Larrabee St & Menomonee St"}}, {"geometry": {"type": "Point", "coordinates": [-87.6626, 41.90068]}, "type": "Feature", "id": 16, "properties": {"latitude": 41.90068, "dpcapacity": 15.0, "id": 29.0, "longitude": -87.6626, "name": "Noble St & Milwaukee Ave"}}, {"geometry": {"type": "Point", "coordinates": [-87.6677, 41.899643]}, "type": "Feature", "id": 17, "properties": {"latitude": 41.899643, "dpcapacity": 15.0, "id": 30.0, "longitude": -87.6677, "name": "Ashland Ave & Augusta Blvd"}}, {"geometry": {"type": "Point", "coordinates": [-87.63563839, 41.89680204]}, "type": "Feature", "id": 18, "properties": {"latitude": 41.896802, "dpcapacity": 23.0, "id": 31.0, "longitude": -87.635638, "name": "Franklin St & Chicago Ave"}}, {"geometry": {"type": "Point", "coordinates": [-87.65703, 41.87464]}, "type": "Feature", "id": 19, "properties": {"latitude": 41.87464, "dpcapacity": 19.0, "id": 32.0, "longitude": -87.65703, "name": "Racine Ave & Congress Pkwy"}}, {"geometry": {"type": "Point", "coordinates": [-87.627844, 41.877181]}, "type": "Feature", "id": 20, "properties": {"latitude": 41.877181, "dpcapacity": 27.0, "id": 33.0, "longitude": -87.627844, "name": "State St & Van Buren St"}}, {"geometry": {"type": "Point", "coordinates": [-87.6344287848, 41.9267559875]}, "type": "Feature", "id": 21, "properties": {"latitude": 41.926756, "dpcapacity": 15.0, "id": 34.0, "longitude": -87.634429, "name": "Cannon Dr & Fullerton Ave"}}, {"geometry": {"type": "Point", "coordinates": [-87.6122, 41.891071]}, "type": "Feature", "id": 22, "properties": {"latitude": 41.891071, "dpcapacity": 35.0, "id": 35.0, "longitude": -87.6122, "name": "Streeter Dr & Illinois St"}}, {"geometry": {"type": "Point", "coordinates": [-87.6353211408, 41.8777079559]}, "type": "Feature", "id": 23, "properties": {"latitude": 41.877708, "dpcapacity": 27.0, "id": 36.0, "longitude": -87.635321, "name": "Franklin St & Jackson Blvd"}}, {"geometry": {"type": "Point", "coordinates": [-87.6297910363, 41.8793563587]}, "type": "Feature", "id": 24, "properties": {"latitude": 41.879356, "dpcapacity": 19.0, "id": 37.0, "longitude": -87.629791, "name": "Dearborn St & Adams St"}}, {"geometry": {"type": "Point", "coordinates": [-87.6253370902, 41.8532387578]}, "type": "Feature", "id": 25, "properties": {"latitude": 41.853239, "dpcapacity": 15.0, "id": 42.0, "longitude": -87.625337, "name": "Wabash Ave & Cermak Rd"}}, {"geometry": {"type": "Point", "coordinates": [-87.6246491409, 41.8838927658]}, "type": "Feature", "id": 26, "properties": {"latitude": 41.883893, "dpcapacity": 43.0, "id": 43.0, "longitude": -87.624649, "name": "Michigan Ave & Washington St"}}, {"geometry": {"type": "Point", "coordinates": [-87.6277335692, 41.8847302006]}, "type": "Feature", "id": 27, "properties": {"latitude": 41.88473, "dpcapacity": 27.0, "id": 44.0, "longitude": -87.627734, "name": "State St & Randolph St"}}, {"geometry": {"type": "Point", "coordinates": [-87.6244333636, 41.876065599]}, "type": "Feature", "id": 28, "properties": {"latitude": 41.876066, "dpcapacity": 15.0, "id": 45.0, "longitude": -87.624433, "name": "Michigan Ave & Congress Pkwy"}}, {"geometry": {"type": "Point", "coordinates": [-87.63443007, 41.89993001]}, "type": "Feature", "id": 29, "properties": {"latitude": 41.89993, "dpcapacity": 19.0, "id": 46.0, "longitude": -87.63443, "name": "Wells St & Walton St"}}, {"geometry": {"type": "Point", "coordinates": [-87.6277, 41.88918]}, "type": "Feature", "id": 30, "properties": {"latitude": 41.88918, "dpcapacity": 15.0, "id": 47.0, "longitude": -87.6277, "name": "State St & Kinzie St"}}, {"geometry": {"type": "Point", "coordinates": [-87.642884, 41.897764]}, "type": "Feature", "id": 31, "properties": {"latitude": 41.897764, "dpcapacity": 27.0, "id": 48.0, "longitude": -87.642884, "name": "Larrabee St & Kingsbury St"}}, {"geometry": {"type": "Point", "coordinates": [-87.6295209193, 41.881319815]}, "type": "Feature", "id": 32, "properties": {"latitude": 41.88132, "dpcapacity": 23.0, "id": 49.0, "longitude": -87.629521, "name": "Dearborn St & Monroe St"}}, {"geometry": {"type": "Point", "coordinates": [-87.6305845355, 41.8759326655]}, "type": "Feature", "id": 33, "properties": {"latitude": 41.875933, "dpcapacity": 27.0, "id": 50.0, "longitude": -87.630585, "name": "Clark St & Congress Pkwy"}}, {"geometry": {"type": "Point", "coordinates": [-87.63188991, 41.884576228]}, "type": "Feature", "id": 34, "properties": {"latitude": 41.884576, "dpcapacity": 31.0, "id": 51.0, "longitude": -87.63189, "name": "Clark St & Randolph St"}}, {"geometry": {"type": "Point", "coordinates": [-87.6242893413, 41.8860581151]}, "type": "Feature", "id": 35, "properties": {"latitude": 41.886058, "dpcapacity": 23.0, "id": 52.0, "longitude": -87.624289, "name": "Michigan Ave & Lake St"}}, {"geometry": {"type": "Point", "coordinates": [-87.634195, 41.893832]}, "type": "Feature", "id": 36, "properties": {"latitude": 41.893832, "dpcapacity": 19.0, "id": 53.0, "longitude": -87.634195, "name": "Wells St & Erie St"}}, {"geometry": {"type": "Point", "coordinates": [-87.6540612729, 41.896362458]}, "type": "Feature", "id": 37, "properties": {"latitude": 41.896362, "dpcapacity": 19.0, "id": 54.0, "longitude": -87.654061, "name": "Ogden Ave & Chicago Ave"}}, {"geometry": {"type": "Point", "coordinates": [-87.646611, 41.865861]}, "type": "Feature", "id": 38, "properties": {"latitude": 41.865861, "dpcapacity": 15.0, "id": 55.0, "longitude": -87.646611, "name": "Halsted St & James M Rochford St"}}, {"geometry": {"type": "Point", "coordinates": [-87.6444478533, 41.888716036]}, "type": "Feature", "id": 39, "properties": {"latitude": 41.888716, "dpcapacity": 19.0, "id": 56.0, "longitude": -87.644448, "name": "Desplaines St & Kinzie St"}}, {"geometry": {"type": "Point", "coordinates": [-87.6410879593, 41.8671177825]}, "type": "Feature", "id": 40, "properties": {"latitude": 41.867118, "dpcapacity": 15.0, "id": 57.0, "longitude": -87.641088, "name": "Clinton St & Roosevelt Rd"}}, {"geometry": {"type": "Point", "coordinates": [-87.668919, 41.9178588677]}, "type": "Feature", "id": 41, "properties": {"latitude": 41.917859, "dpcapacity": 15.0, "id": 58.0, "longitude": -87.668919, "name": "Ashland Ave & Armitage Ave"}}, {"geometry": {"type": "Point", "coordinates": [-87.6259550069, 41.8671729952]}, "type": "Feature", "id": 42, "properties": {"latitude": 41.867173, "dpcapacity": 19.0, "id": 59.0, "longitude": -87.625955, "name": "Wabash Ave & Roosevelt Rd"}}, {"geometry": {"type": "Point", "coordinates": [-87.6494219288, 41.9105780349]}, "type": "Feature", "id": 43, "properties": {"latitude": 41.910578, "dpcapacity": 19.0, "id": 60.0, "longitude": -87.649422, "name": "Dayton St & North Ave"}}, {"geometry": {"type": "Point", "coordinates": [-87.672552, 41.907655]}, "type": "Feature", "id": 44, "properties": {"latitude": 41.907655, "dpcapacity": 15.0, "id": 61.0, "longitude": -87.672552, "name": "Wood St & Milwaukee Ave"}}, {"geometry": {"type": "Point", "coordinates": [-87.6188346489, 41.8513751729]}, "type": "Feature", "id": 45, "properties": {"latitude": 41.851375, "dpcapacity": 15.0, "id": 62.0, "longitude": -87.618835, "name": "McCormick Place"}}, {"geometry": {"type": "Point", "coordinates": [-87.6413823149, 41.8858327415]}, "type": "Feature", "id": 46, "properties": {"latitude": 41.885833, "dpcapacity": 19.0, "id": 66.0, "longitude": -87.641382, "name": "Clinton St & Lake St"}}, {"geometry": {"type": "Point", "coordinates": [-87.6537080423, 41.9256018819]}, "type": "Feature", "id": 47, "properties": {"latitude": 41.925602, "dpcapacity": 15.0, "id": 67.0, "longitude": -87.653708, "name": "Sheffield Ave & Fullerton Ave"}}, {"geometry": {"type": "Point", "coordinates": [-87.640795, 41.875885]}, "type": "Feature", "id": 48, "properties": {"latitude": 41.875885, "dpcapacity": 23.0, "id": 68.0, "longitude": -87.640795, "name": "Clinton St & Tilden St"}}, {"geometry": {"type": "Point", "coordinates": [-87.6776919292, 41.9093960065]}, "type": "Feature", "id": 49, "properties": {"latitude": 41.909396, "dpcapacity": 19.0, "id": 69.0, "longitude": -87.677692, "name": "Damen Ave & Pierce Ave"}}, {"geometry": {"type": "Point", "coordinates": [-87.6523048564, 41.8854833079]}, "type": "Feature", "id": 50, "properties": {"latitude": 41.885483, "dpcapacity": 15.0, "id": 71.0, "longitude": -87.652305, "name": "Morgan St & Lake St"}}, {"geometry": {"type": "Point", "coordinates": [-87.6277291853, 41.8601213774]}, "type": "Feature", "id": 51, "properties": {"latitude": 41.860121, "dpcapacity": 15.0, "id": 72.0, "longitude": -87.627729, "name": "State St & 16th St"}}, {"geometry": {"type": "Point", "coordinates": [-87.642746, 41.880422]}, "type": "Feature", "id": 52, "properties": {"latitude": 41.880422, "dpcapacity": 19.0, "id": 73.0, "longitude": -87.642746, "name": "Jefferson St & Monroe St"}}, {"geometry": {"type": "Point", "coordinates": [-87.64185116, 41.89384315]}, "type": "Feature", "id": 53, "properties": {"latitude": 41.893843, "dpcapacity": 23.0, "id": 74.0, "longitude": -87.641851, "name": "Kingsbury St & Erie St"}}, {"geometry": {"type": "Point", "coordinates": [-87.63997112, 41.87811421]}, "type": "Feature", "id": 54, "properties": {"latitude": 41.878114, "dpcapacity": 35.0, "id": 75.0, "longitude": -87.639971, "name": "Canal St & Jackson Blvd"}}, {"geometry": {"type": "Point", "coordinates": [-87.61697, 41.88105]}, "type": "Feature", "id": 55, "properties": {"latitude": 41.88105, "dpcapacity": 11.0, "id": 76.0, "longitude": -87.61697, "name": "Lake Shore Dr & Monroe St"}}, {"geometry": {"type": "Point", "coordinates": [-87.64127743, 41.8815824]}, "type": "Feature", "id": 56, "properties": {"latitude": 41.881582, "dpcapacity": 23.0, "id": 77.0, "longitude": -87.641277, "name": "Clinton St & Madison St"}}, {"geometry": {"type": "Point", "coordinates": [-87.654752, 41.881487]}, "type": "Feature", "id": 57, "properties": {"latitude": 41.881487, "dpcapacity": 19.0, "id": 80.0, "longitude": -87.654752, "name": "Aberdeen St & Madison St"}}, {"geometry": {"type": "Point", "coordinates": [-87.630183, 41.884337]}, "type": "Feature", "id": 58, "properties": {"latitude": 41.884337, "dpcapacity": 47.0, "id": 81.0, "longitude": -87.630183, "name": "Daley Center Plaza"}}, {"geometry": {"type": "Point", "coordinates": [-87.648727, 41.891733]}, "type": "Feature", "id": 59, "properties": {"latitude": 41.891733, "dpcapacity": 19.0, "id": 84.0, "longitude": -87.648727, "name": "Green St & Milwaukee Ave"}}, {"geometry": {"type": "Point", "coordinates": [-87.62377664, 41.90096039]}, "type": "Feature", "id": 60, "properties": {"latitude": 41.90096, "dpcapacity": 15.0, "id": 85.0, "longitude": -87.623777, "name": "Michigan Ave & Oak St"}}, {"geometry": {"type": "Point", "coordinates": [-87.66098386, 41.89637337]}, "type": "Feature", "id": 61, "properties": {"latitude": 41.896373, "dpcapacity": 15.0, "id": 86.0, "longitude": -87.660984, "name": "Eckhart Park"}}, {"geometry": {"type": "Point", "coordinates": [-87.65840426, 41.92556258]}, "type": "Feature", "id": 62, "properties": {"latitude": 41.925563, "dpcapacity": 19.0, "id": 87.0, "longitude": -87.658404, "name": "Racine Ave & Fullerton Ave"}}, {"geometry": {"type": "Point", "coordinates": [-87.655688, 41.88397]}, "type": "Feature", "id": 63, "properties": {"latitude": 41.88397, "dpcapacity": 15.0, "id": 88.0, "longitude": -87.655688, "name": "May St & Randolph St"}}, {"geometry": {"type": "Point", "coordinates": [-87.62408432, 41.8810317]}, "type": "Feature", "id": 64, "properties": {"latitude": 41.881032, "dpcapacity": 35.0, "id": 90.0, "longitude": -87.624084, "name": "Millennium Park"}}, {"geometry": {"type": "Point", "coordinates": [-87.64117, 41.88338]}, "type": "Feature", "id": 65, "properties": {"latitude": 41.88338, "dpcapacity": 31.0, "id": 91.0, "longitude": -87.64117, "name": "Clinton St & Washington Blvd"}}, {"geometry": {"type": "Point", "coordinates": [-87.653449, 41.894556]}, "type": "Feature", "id": 66, "properties": {"latitude": 41.894556, "dpcapacity": 19.0, "id": 92.0, "longitude": -87.653449, "name": "Carpenter St & Huron St"}}, {"geometry": {"type": "Point", "coordinates": [-87.652855, 41.913688]}, "type": "Feature", "id": 67, "properties": {"latitude": 41.913688, "dpcapacity": 15.0, "id": 93.0, "longitude": -87.652855, "name": "Sheffield Ave & Willow St"}}, {"geometry": {"type": "Point", "coordinates": [-87.638116, 41.918273]}, "type": "Feature", "id": 68, "properties": {"latitude": 41.918273, "dpcapacity": 19.0, "id": 94.0, "longitude": -87.638116, "name": "Lincoln Ave & Armitage Ave"}}, {"geometry": {"type": "Point", "coordinates": [-87.617759, 41.865212]}, "type": "Feature", "id": 69, "properties": {"latitude": 41.865212, "dpcapacity": 19.0, "id": 97.0, "longitude": -87.617759, "name": "Museum Campus"}}, {"geometry": {"type": "Point", "coordinates": [-87.63253, 41.882664]}, "type": "Feature", "id": 70, "properties": {"latitude": 41.882664, "dpcapacity": 15.0, "id": 98.0, "longitude": -87.63253, "name": "LaSalle St & Washington St"}}, {"geometry": {"type": "Point", "coordinates": [-87.614492, 41.89257]}, "type": "Feature", "id": 71, "properties": {"latitude": 41.89257, "dpcapacity": 19.0, "id": 99.0, "longitude": -87.614492, "name": "Lake Shore Dr & Ohio St"}}, {"geometry": {"type": "Point", "coordinates": [-87.63639, 41.888243]}, "type": "Feature", "id": 72, "properties": {"latitude": 41.888243, "dpcapacity": 23.0, "id": 100.0, "longitude": -87.63639, "name": "Orleans St & Merchandise Mart Plaza"}}, {"geometry": {"type": "Point", "coordinates": [-87.628722, 41.897448]}, "type": "Feature", "id": 73, "properties": {"latitude": 41.897448, "dpcapacity": 27.0, "id": 106.0, "longitude": -87.628722, "name": "State St & Pearson St"}}, {"geometry": {"type": "Point", "coordinates": [-87.64664, 41.87184]}, "type": "Feature", "id": 74, "properties": {"latitude": 41.87184, "dpcapacity": 19.0, "id": 108.0, "longitude": -87.64664, "name": "Halsted St & Polk St"}}, {"geometry": {"type": "Point", "coordinates": [-87.6498, 41.8745]}, "type": "Feature", "id": 75, "properties": {"latitude": 41.8745, "dpcapacity": 19.0, "id": 109.0, "longitude": -87.6498, "name": "900 W Harrison"}}, {"geometry": {"type": "Point", "coordinates": [-87.628623, 41.893975]}, "type": "Feature", "id": 76, "properties": {"latitude": 41.893975, "dpcapacity": 23.0, "id": 110.0, "longitude": -87.628623, "name": "State St & Erie St"}}, {"geometry": {"type": "Point", "coordinates": [-87.638437, 41.894666]}, "type": "Feature", "id": 77, "properties": {"latitude": 41.894666, "dpcapacity": 19.0, "id": 111.0, "longitude": -87.638437, "name": "Sedgwick St & Huron St"}}, {"geometry": {"type": "Point", "coordinates": [-87.648684, 41.884078]}, "type": "Feature", "id": 78, "properties": {"latitude": 41.884078, "dpcapacity": 15.0, "id": 112.0, "longitude": -87.648684, "name": "Green St & Randolph St"}}, {"geometry": {"type": "Point", "coordinates": [-87.65222, 41.91844]}, "type": "Feature", "id": 79, "properties": {"latitude": 41.91844, "dpcapacity": 15.0, "id": 113.0, "longitude": -87.65222, "name": "Bissell St & Armitage Ave"}}, {"geometry": {"type": "Point", "coordinates": [-87.65445, 41.94688]}, "type": "Feature", "id": 80, "properties": {"latitude": 41.94688, "dpcapacity": 27.0, "id": 114.0, "longitude": -87.65445, "name": "Sheffield Ave & Addison St"}}, {"geometry": {"type": "Point", "coordinates": [-87.653566, 41.936253]}, "type": "Feature", "id": 81, "properties": {"latitude": 41.936253, "dpcapacity": 23.0, "id": 115.0, "longitude": -87.653566, "name": "Sheffield Ave & Wellington Ave"}}, {"geometry": {"type": "Point", "coordinates": [-87.687051, 41.915533]}, "type": "Feature", "id": 82, "properties": {"latitude": 41.915533, "dpcapacity": 15.0, "id": 116.0, "longitude": -87.687051, "name": "Western Ave & Winnebago Ave"}}, {"geometry": {"type": "Point", "coordinates": [-87.65304, 41.94018]}, "type": "Feature", "id": 83, "properties": {"latitude": 41.94018, "dpcapacity": 23.0, "id": 117.0, "longitude": -87.65304, "name": "Wilton Ave & Belmont Ave"}}, {"geometry": {"type": "Point", "coordinates": [-87.638618, 41.910579]}, "type": "Feature", "id": 84, "properties": {"latitude": 41.910579, "dpcapacity": 19.0, "id": 118.0, "longitude": -87.638618, "name": "Sedgwick St & North Ave"}}, {"geometry": {"type": "Point", "coordinates": [-87.66732, 41.88541]}, "type": "Feature", "id": 85, "properties": {"latitude": 41.88541, "dpcapacity": 19.0, "id": 119.0, "longitude": -87.66732, "name": "Ashland Ave & Lake St"}}, {"geometry": {"type": "Point", "coordinates": [-87.631937, 41.854564]}, "type": "Feature", "id": 86, "properties": {"latitude": 41.854564, "dpcapacity": 15.0, "id": 120.0, "longitude": -87.631937, "name": "Wentworth Ave & Archer Ave"}}, {"geometry": {"type": "Point", "coordinates": [-87.590368, 41.802562]}, "type": "Feature", "id": 87, "properties": {"latitude": 41.802562, "dpcapacity": 15.0, "id": 121.0, "longitude": -87.590368, "name": "Blackstone Ave & Hyde Park Blvd"}}, {"geometry": {"type": "Point", "coordinates": [-87.67328, 41.87501]}, "type": "Feature", "id": 88, "properties": {"latitude": 41.87501, "dpcapacity": 15.0, "id": 122.0, "longitude": -87.67328, "name": "Congress Pkwy & Ogden Ave"}}, {"geometry": {"type": "Point", "coordinates": [-87.697153, 41.922695]}, "type": "Feature", "id": 89, "properties": {"latitude": 41.922695, "dpcapacity": 15.0, "id": 123.0, "longitude": -87.697153, "name": "California Ave & Milwaukee Ave"}}, {"geometry": {"type": "Point", "coordinates": [-87.675726, 41.855048]}, "type": "Feature", "id": 90, "properties": {"latitude": 41.855048, "dpcapacity": 15.0, "id": 124.0, "longitude": -87.675726, "name": "Damen Ave & Cullerton St"}}, {"geometry": {"type": "Point", "coordinates": [-87.631841, 41.911791]}, "type": "Feature", "id": 91, "properties": {"latitude": 41.911791, "dpcapacity": 15.0, "id": 126.0, "longitude": -87.631841, "name": "Clark St & North Ave"}}, {"geometry": {"type": "Point", "coordinates": [-87.64926, 41.925905]}, "type": "Feature", "id": 92, "properties": {"latitude": 41.925905, "dpcapacity": 15.0, "id": 127.0, "longitude": -87.64926, "name": "Lincoln Ave & Fullerton Ave"}}, {"geometry": {"type": "Point", "coordinates": [-87.67722, 41.895769]}, "type": "Feature", "id": 93, "properties": {"latitude": 41.895769, "dpcapacity": 15.0, "id": 128.0, "longitude": -87.67722, "name": "Damen Ave & Chicago Ave"}}, {"geometry": {"type": "Point", "coordinates": [-87.661535, 41.857556]}, "type": "Feature", "id": 94, "properties": {"latitude": 41.857556, "dpcapacity": 15.0, "id": 129.0, "longitude": -87.661535, "name": "Blue Island Ave & 18th St"}}, {"geometry": {"type": "Point", "coordinates": [-87.67695, 41.90331]}, "type": "Feature", "id": 95, "properties": {"latitude": 41.90331, "dpcapacity": 15.0, "id": 130.0, "longitude": -87.67695, "name": "Damen Ave & Division St"}}, {"geometry": {"type": "Point", "coordinates": [-87.668385, 41.939365]}, "type": "Feature", "id": 96, "properties": {"latitude": 41.939365, "dpcapacity": 15.0, "id": 131.0, "longitude": -87.668385, "name": "Lincoln Ave & Belmont Ave"}}, {"geometry": {"type": "Point", "coordinates": [-87.631715, 41.849237]}, "type": "Feature", "id": 97, "properties": {"latitude": 41.849237, "dpcapacity": 15.0, "id": 132.0, "longitude": -87.631715, "name": "Wentworth Ave & 24th St"}}, {"geometry": {"type": "Point", "coordinates": [-87.649633, 41.877749]}, "type": "Feature", "id": 98, "properties": {"latitude": 41.877749, "dpcapacity": 19.0, "id": 134.0, "longitude": -87.649633, "name": "Peoria St & Jackson Blvd"}}, {"geometry": {"type": "Point", "coordinates": [-87.64665, 41.85378]}, "type": "Feature", "id": 99, "properties": {"latitude": 41.85378, "dpcapacity": 11.0, "id": 135.0, "longitude": -87.64665, "name": "Halsted St & 21st St"}}, {"geometry": {"type": "Point", "coordinates": [-87.656959, 41.865054]}, "type": "Feature", "id": 100, "properties": {"latitude": 41.865054, "dpcapacity": 15.0, "id": 136.0, "longitude": -87.656959, "name": "Racine Ave & 13th St"}}, {"geometry": {"type": "Point", "coordinates": [-87.651062, 41.862378]}, "type": "Feature", "id": 101, "properties": {"latitude": 41.862378, "dpcapacity": 15.0, "id": 137.0, "longitude": -87.651062, "name": "Morgan Ave & 14th Pl"}}, {"geometry": {"type": "Point", "coordinates": [-87.6405, 41.904509]}, "type": "Feature", "id": 102, "properties": {"latitude": 41.904509, "dpcapacity": 15.0, "id": 138.0, "longitude": -87.6405, "name": "Clybourn Ave & Division St"}}, {"geometry": {"type": "Point", "coordinates": [-87.629928, 41.899007]}, "type": "Feature", "id": 103, "properties": {"latitude": 41.899007, "dpcapacity": 19.0, "id": 140.0, "longitude": -87.629928, "name": "Dearborn Pkwy & Delaware Pl"}}, {"geometry": {"type": "Point", "coordinates": [-87.6346, 41.915689]}, "type": "Feature", "id": 104, "properties": {"latitude": 41.915689, "dpcapacity": 19.0, "id": 141.0, "longitude": -87.6346, "name": "Clark St & Lincoln Ave"}}, {"geometry": {"type": "Point", "coordinates": [-87.63854, 41.92197]}, "type": "Feature", "id": 105, "properties": {"latitude": 41.92197, "dpcapacity": 15.0, "id": 143.0, "longitude": -87.63854, "name": "Sedgwick St & Webster Ave"}}, {"geometry": {"type": "Point", "coordinates": [-87.64401, 41.92175]}, "type": "Feature", "id": 106, "properties": {"latitude": 41.92175, "dpcapacity": 15.0, "id": 144.0, "longitude": -87.64401, "name": "Larrabee St & Webster Ave"}}, {"geometry": {"type": "Point", "coordinates": [-87.662007, 41.877945]}, "type": "Feature", "id": 107, "properties": {"latitude": 41.877945, "dpcapacity": 11.0, "id": 146.0, "longitude": -87.662007, "name": "Loomis St & Jackson Blvd"}}, {"geometry": {"type": "Point", "coordinates": [-87.62248, 41.8457]}, "type": "Feature", "id": 108, "properties": {"latitude": 41.8457, "dpcapacity": 15.0, "id": 147.0, "longitude": -87.62248, "name": "Indiana Ave & 26th St"}}, {"geometry": {"type": "Point", "coordinates": [-87.625813, 41.834734]}, "type": "Feature", "id": 109, "properties": {"latitude": 41.834734, "dpcapacity": 11.0, "id": 148.0, "longitude": -87.625813, "name": "State St & 33rd St"}}, {"geometry": {"type": "Point", "coordinates": [-87.61793, 41.8349]}, "type": "Feature", "id": 110, "properties": {"latitude": 41.8349, "dpcapacity": 11.0, "id": 149.0, "longitude": -87.61793, "name": "Calumet Ave & 33rd St"}}, {"geometry": {"type": "Point", "coordinates": [-87.608218, 41.838556]}, "type": "Feature", "id": 111, "properties": {"latitude": 41.838556, "dpcapacity": 11.0, "id": 150.0, "longitude": -87.608218, "name": "Fort Dearborn Dr & 31st St"}}, {"geometry": {"type": "Point", "coordinates": [-87.658617, 41.932225]}, "type": "Feature", "id": 112, "properties": {"latitude": 41.932225, "dpcapacity": 15.0, "id": 152.0, "longitude": -87.658617, "name": "Lincoln Ave & Diversey Pkwy"}}, {"geometry": {"type": "Point", "coordinates": [-87.6637, 41.93584]}, "type": "Feature", "id": 113, "properties": {"latitude": 41.93584, "dpcapacity": 19.0, "id": 153.0, "longitude": -87.6637, "name": "Southport Ave & Wellington Ave"}}, {"geometry": {"type": "Point", "coordinates": [-87.66378, 41.93949]}, "type": "Feature", "id": 114, "properties": {"latitude": 41.93949, "dpcapacity": 15.0, "id": 154.0, "longitude": -87.66378, "name": "Southport Ave & Belmont Ave"}}, {"geometry": {"type": "Point", "coordinates": [-87.6475386582, 41.9364968219]}, "type": "Feature", "id": 115, "properties": {"latitude": 41.936497, "dpcapacity": 15.0, "id": 156.0, "longitude": -87.647539, "name": "Clark St & Wellington Ave"}}, {"geometry": {"type": "Point", "coordinates": [-87.636794, 41.936669]}, "type": "Feature", "id": 116, "properties": {"latitude": 41.936669, "dpcapacity": 15.0, "id": 157.0, "longitude": -87.636794, "name": "Lake Shore Dr & Wellington Ave"}}, {"geometry": {"type": "Point", "coordinates": [-87.681391, 41.912616]}, "type": "Feature", "id": 117, "properties": {"latitude": 41.912616, "dpcapacity": 15.0, "id": 158.0, "longitude": -87.681391, "name": "Milwaukee Ave & Wabansia Ave"}}, {"geometry": {"type": "Point", "coordinates": [-87.685854, 41.907781]}, "type": "Feature", "id": 118, "properties": {"latitude": 41.907781, "dpcapacity": 11.0, "id": 159.0, "longitude": -87.685854, "name": "Claremont Ave & Hirsch St"}}, {"geometry": {"type": "Point", "coordinates": [-87.689556, 41.910535]}, "type": "Feature", "id": 119, "properties": {"latitude": 41.910535, "dpcapacity": 15.0, "id": 160.0, "longitude": -87.689556, "name": "Campbell Ave & North Ave"}}, {"geometry": {"type": "Point", "coordinates": [-87.67842, 41.93588]}, "type": "Feature", "id": 120, "properties": {"latitude": 41.93588, "dpcapacity": 15.0, "id": 162.0, "longitude": -87.67842, "name": "Damen Ave & Wellington Ave"}}, {"geometry": {"type": "Point", "coordinates": [-87.67079, 41.93186]}, "type": "Feature", "id": 121, "properties": {"latitude": 41.93186, "dpcapacity": 15.0, "id": 163.0, "longitude": -87.67079, "name": "Paulina St & Diversey Pkwy"}}, {"geometry": {"type": "Point", "coordinates": [-87.6355, 41.885837]}, "type": "Feature", "id": 122, "properties": {"latitude": 41.885837, "dpcapacity": 23.0, "id": 164.0, "longitude": -87.6355, "name": "Franklin St & Lake St"}}, {"geometry": {"type": "Point", "coordinates": [-87.65775, 41.94893]}, "type": "Feature", "id": 123, "properties": {"latitude": 41.94893, "dpcapacity": 19.0, "id": 165.0, "longitude": -87.65775, "name": "Clark St & Waveland Ave"}}, {"geometry": {"type": "Point", "coordinates": [-87.668507, 41.92883]}, "type": "Feature", "id": 124, "properties": {"latitude": 41.92883, "dpcapacity": 15.0, "id": 166.0, "longitude": -87.668507, "name": "Ashland Ave & Wrightwood Ave"}}, {"geometry": {"type": "Point", "coordinates": [-87.67564, 41.8492]}, "type": "Feature", "id": 125, "properties": {"latitude": 41.8492, "dpcapacity": 11.0, "id": 167.0, "longitude": -87.67564, "name": "Damen Ave & Coulter St"}}, {"geometry": {"type": "Point", "coordinates": [-87.623727, 41.864059]}, "type": "Feature", "id": 126, "properties": {"latitude": 41.864059, "dpcapacity": 19.0, "id": 168.0, "longitude": -87.623727, "name": "Michigan Ave & 14th St"}}, {"geometry": {"type": "Point", "coordinates": [-87.639566, 41.874337]}, "type": "Feature", "id": 127, "properties": {"latitude": 41.874337, "dpcapacity": 15.0, "id": 169.0, "longitude": -87.639566, "name": "Canal St & Harrison St"}}, {"geometry": {"type": "Point", "coordinates": [-87.640826, 41.85795]}, "type": "Feature", "id": 128, "properties": {"latitude": 41.85795, "dpcapacity": 15.0, "id": 170.0, "longitude": -87.640826, "name": "Clinton St & 18th St"}}, {"geometry": {"type": "Point", "coordinates": [-87.654127, 41.855136]}, "type": "Feature", "id": 129, "properties": {"latitude": 41.855136, "dpcapacity": 11.0, "id": 171.0, "longitude": -87.654127, "name": "May St & Cullerton St"}}, {"geometry": {"type": "Point", "coordinates": [-87.621743, 41.89691]}, "type": "Feature", "id": 130, "properties": {"latitude": 41.89691, "dpcapacity": 15.0, "id": 173.0, "longitude": -87.621743, "name": "Mies van der Rohe Way & Chicago Ave"}}, {"geometry": {"type": "Point", "coordinates": [-87.639833, 41.882091]}, "type": "Feature", "id": 131, "properties": {"latitude": 41.882091, "dpcapacity": 23.0, "id": 174.0, "longitude": -87.639833, "name": "Canal St & Madison St"}}, {"geometry": {"type": "Point", "coordinates": [-87.633523, 41.872373]}, "type": "Feature", "id": 132, "properties": {"latitude": 41.872373, "dpcapacity": 19.0, "id": 175.0, "longitude": -87.633523, "name": "Wells St & Polk St"}}, {"geometry": {"type": "Point", "coordinates": [-87.631253, 41.903233]}, "type": "Feature", "id": 133, "properties": {"latitude": 41.903233, "dpcapacity": 19.0, "id": 176.0, "longitude": -87.631253, "name": "Clark St & Elm St"}}, {"geometry": {"type": "Point", "coordinates": [-87.630834, 41.926277]}, "type": "Feature", "id": 134, "properties": {"latitude": 41.926277, "dpcapacity": 15.0, "id": 177.0, "longitude": -87.630834, "name": "Theater on the Lake"}}, {"geometry": {"type": "Point", "coordinates": [-87.627542, 41.856594]}, "type": "Feature", "id": 135, "properties": {"latitude": 41.856594, "dpcapacity": 15.0, "id": 178.0, "longitude": -87.627542, "name": "State St & 19th St"}}, {"geometry": {"type": "Point", "coordinates": [-87.61615, 41.82256]}, "type": "Feature", "id": 136, "properties": {"latitude": 41.82256, "dpcapacity": 15.0, "id": 179.0, "longitude": -87.61615, "name": "Martin Luther King Dr & Oakwood Blvd"}}, {"geometry": {"type": "Point", "coordinates": [-87.63206, 41.890749]}, "type": "Feature", "id": 137, "properties": {"latitude": 41.890749, "dpcapacity": 19.0, "id": 181.0, "longitude": -87.63206, "name": "LaSalle St & Illinois St"}}, {"geometry": {"type": "Point", "coordinates": [-87.677234, 41.899714]}, "type": "Feature", "id": 138, "properties": {"latitude": 41.899714, "dpcapacity": 15.0, "id": 183.0, "longitude": -87.677234, "name": "Damen Ave & Augusta Blvd"}}, {"geometry": {"type": "Point", "coordinates": [-87.62688, 41.83104]}, "type": "Feature", "id": 139, "properties": {"latitude": 41.83104, "dpcapacity": 19.0, "id": 184.0, "longitude": -87.62688, "name": "State St & 35th St"}}, {"geometry": {"type": "Point", "coordinates": [-87.691392, 41.917741]}, "type": "Feature", "id": 140, "properties": {"latitude": 41.917741, "dpcapacity": 11.0, "id": 185.0, "longitude": -87.691392, "name": "Stave St & Armitage Ave"}}, {"geometry": {"type": "Point", "coordinates": [-87.658751, 41.891795]}, "type": "Feature", "id": 141, "properties": {"latitude": 41.891795, "dpcapacity": 15.0, "id": 186.0, "longitude": -87.658751, "name": "Ogden Ave & Race Ave"}}, {"geometry": {"type": "Point", "coordinates": [-87.6658, 41.92533]}, "type": "Feature", "id": 142, "properties": {"latitude": 41.92533, "dpcapacity": 15.0, "id": 188.0, "longitude": -87.6658, "name": "Greenview Ave & Fullerton Ave"}}, {"geometry": {"type": "Point", "coordinates": [-87.66317, 41.92888]}, "type": "Feature", "id": 143, "properties": {"latitude": 41.92888, "dpcapacity": 15.0, "id": 190.0, "longitude": -87.66317, "name": "Southport Ave & Wrightwood Ave"}}, {"geometry": {"type": "Point", "coordinates": [-87.63947, 41.8807]}, "type": "Feature", "id": 144, "properties": {"latitude": 41.8807, "dpcapacity": 23.0, "id": 191.0, "longitude": -87.63947, "name": "Canal St & Monroe St"}}, {"geometry": {"type": "Point", "coordinates": [-87.640015, 41.87923]}, "type": "Feature", "id": 145, "properties": {"latitude": 41.87923, "dpcapacity": 27.0, "id": 192.0, "longitude": -87.640015, "name": "Canal St & Adams St"}}, {"geometry": {"type": "Point", "coordinates": [-87.626938, 41.841707]}, "type": "Feature", "id": 146, "properties": {"latitude": 41.841707, "dpcapacity": 15.0, "id": 193.0, "longitude": -87.626938, "name": "State St & 29th St"}}, {"geometry": {"type": "Point", "coordinates": [-87.62775, 41.887155]}, "type": "Feature", "id": 147, "properties": {"latitude": 41.887155, "dpcapacity": 11.0, "id": 194.0, "longitude": -87.62775, "name": "State St & Wacker Dr"}}, {"geometry": {"type": "Point", "coordinates": [-87.62077, 41.8853]}, "type": "Feature", "id": 148, "properties": {"latitude": 41.8853, "dpcapacity": 23.0, "id": 195.0, "longitude": -87.62077, "name": "Columbus Dr & Randolph St"}}, {"geometry": {"type": "Point", "coordinates": [-87.621994, 41.889875]}, "type": "Feature", "id": 149, "properties": {"latitude": 41.889875, "dpcapacity": 19.0, "id": 196.0, "longitude": -87.621994, "name": "Cityfront Plaza & N Water St"}}, {"geometry": {"type": "Point", "coordinates": [-87.625125, 41.882134]}, "type": "Feature", "id": 150, "properties": {"latitude": 41.882134, "dpcapacity": 19.0, "id": 197.0, "longitude": -87.625125, "name": "Michigan Ave & Madison St"}}, {"geometry": {"type": "Point", "coordinates": [-87.6478, 41.88175]}, "type": "Feature", "id": 151, "properties": {"latitude": 41.88175, "dpcapacity": 19.0, "id": 198.0, "longitude": -87.6478, "name": "Halsted St & Madison St"}}, {"geometry": {"type": "Point", "coordinates": [-87.626937, 41.891738]}, "type": "Feature", "id": 152, "properties": {"latitude": 41.891738, "dpcapacity": 15.0, "id": 199.0, "longitude": -87.626937, "name": "Wabash Ave & Grand Ave"}}, {"geometry": {"type": "Point", "coordinates": [-87.616279, 41.809851]}, "type": "Feature", "id": 153, "properties": {"latitude": 41.809851, "dpcapacity": 11.0, "id": 200.0, "longitude": -87.616279, "name": "King Dr & 47th St"}}, {"geometry": {"type": "Point", "coordinates": [-87.6216, 41.82168]}, "type": "Feature", "id": 154, "properties": {"latitude": 41.82168, "dpcapacity": 15.0, "id": 201.0, "longitude": -87.6216, "name": "Indiana Ave & 40th St"}}, {"geometry": {"type": "Point", "coordinates": [-87.646277, 41.857499]}, "type": "Feature", "id": 155, "properties": {"latitude": 41.857499, "dpcapacity": 15.0, "id": 202.0, "longitude": -87.646277, "name": "Halsted St & 18th St"}}, {"geometry": {"type": "Point", "coordinates": [-87.685243, 41.85394]}, "type": "Feature", "id": 156, "properties": {"latitude": 41.85394, "dpcapacity": 15.0, "id": 203.0, "longitude": -87.685243, "name": "Western Ave & 21st St"}}, {"geometry": {"type": "Point", "coordinates": [-87.61936, 41.7951]}, "type": "Feature", "id": 157, "properties": {"latitude": 41.7951, "dpcapacity": 15.0, "id": 204.0, "longitude": -87.61936, "name": "Prairie Ave & Garfield Blvd"}}, {"geometry": {"type": "Point", "coordinates": [-87.668745, 41.857901]}, "type": "Feature", "id": 158, "properties": {"latitude": 41.857901, "dpcapacity": 15.0, "id": 205.0, "longitude": -87.668745, "name": "Paulina St & 18th St"}}, {"geometry": {"type": "Point", "coordinates": [-87.646795, 41.847203]}, "type": "Feature", "id": 159, "properties": {"latitude": 41.847203, "dpcapacity": 15.0, "id": 206.0, "longitude": -87.646795, "name": "Halsted St & Archer Ave"}}, {"geometry": {"type": "Point", "coordinates": [-87.645368, 41.84358]}, "type": "Feature", "id": 160, "properties": {"latitude": 41.84358, "dpcapacity": 15.0, "id": 207.0, "longitude": -87.645368, "name": "Emerald Ave & 28th St"}}, {"geometry": {"type": "Point", "coordinates": [-87.665897, 41.85381]}, "type": "Feature", "id": 161, "properties": {"latitude": 41.85381, "dpcapacity": 15.0, "id": 208.0, "longitude": -87.665897, "name": "Ashland Ave & 21st St"}}, {"geometry": {"type": "Point", "coordinates": [-87.640591, 41.849527]}, "type": "Feature", "id": 162, "properties": {"latitude": 41.849527, "dpcapacity": 11.0, "id": 209.0, "longitude": -87.640591, "name": "Normal Ave & Archer Ave"}}, {"geometry": {"type": "Point", "coordinates": [-87.66777, 41.903456]}, "type": "Feature", "id": 163, "properties": {"latitude": 41.903456, "dpcapacity": 19.0, "id": 210.0, "longitude": -87.66777, "name": "Ashland Ave & Division St"}}, {"geometry": {"type": "Point", "coordinates": [-87.622663, 41.894448]}, "type": "Feature", "id": 164, "properties": {"latitude": 41.894448, "dpcapacity": 19.0, "id": 211.0, "longitude": -87.622663, "name": "St Clair St & Erie St"}}, {"geometry": {"type": "Point", "coordinates": [-87.633985, 41.892238]}, "type": "Feature", "id": 165, "properties": {"latitude": 41.892238, "dpcapacity": 19.0, "id": 212.0, "longitude": -87.633985, "name": "Wells St & Ohio St"}}, {"geometry": {"type": "Point", "coordinates": [-87.6824, 41.910652]}, "type": "Feature", "id": 166, "properties": {"latitude": 41.910652, "dpcapacity": 11.0, "id": 213.0, "longitude": -87.6824, "name": "Leavitt St & North Ave"}}, {"geometry": {"type": "Point", "coordinates": [-87.67686, 41.89122]}, "type": "Feature", "id": 167, "properties": {"latitude": 41.89122, "dpcapacity": 15.0, "id": 214.0, "longitude": -87.67686, "name": "Damen Ave & Grand Ave"}}, {"geometry": {"type": "Point", "coordinates": [-87.67493, 41.88137]}, "type": "Feature", "id": 168, "properties": {"latitude": 41.88137, "dpcapacity": 15.0, "id": 215.0, "longitude": -87.67493, "name": "Damen Ave & Madison St"}}, {"geometry": {"type": "Point", "coordinates": [-87.697474, 41.903029]}, "type": "Feature", "id": 169, "properties": {"latitude": 41.903029, "dpcapacity": 15.0, "id": 216.0, "longitude": -87.697474, "name": "California Ave & Division St"}}, {"geometry": {"type": "Point", "coordinates": [-87.656001, 41.886773]}, "type": "Feature", "id": 170, "properties": {"latitude": 41.886773, "dpcapacity": 15.0, "id": 217.0, "longitude": -87.656001, "name": "May St & Fulton St"}}, {"geometry": {"type": "Point", "coordinates": [-87.633879, 41.856802]}, "type": "Feature", "id": 171, "properties": {"latitude": 41.856802, "dpcapacity": 11.0, "id": 218.0, "longitude": -87.633879, "name": "Wells St & 19th St"}}, {"geometry": {"type": "Point", "coordinates": [-87.677411, 41.916027]}, "type": "Feature", "id": 172, "properties": {"latitude": 41.916027, "dpcapacity": 11.0, "id": 219.0, "longitude": -87.677411, "name": "Damen Ave & Cortland Ave"}}, {"geometry": {"type": "Point", "coordinates": [-87.642385, 41.93262]}, "type": "Feature", "id": 173, "properties": {"latitude": 41.93262, "dpcapacity": 19.0, "id": 220.0, "longitude": -87.642385, "name": "Hampden Ct & Diversey Pkwy"}}, {"geometry": {"type": "Point", "coordinates": [-87.693033, 41.920195]}, "type": "Feature", "id": 174, "properties": {"latitude": 41.920195, "dpcapacity": 19.0, "id": 222.0, "longitude": -87.693033, "name": "Milwaukee Ave & Rockwell St"}}, {"geometry": {"type": "Point", "coordinates": [-87.656936, 41.918216]}, "type": "Feature", "id": 175, "properties": {"latitude": 41.918216, "dpcapacity": 15.0, "id": 223.0, "longitude": -87.656936, "name": "Clifton Ave & Armitage Ave"}}, {"geometry": {"type": "Point", "coordinates": [-87.64884, 41.913778]}, "type": "Feature", "id": 176, "properties": {"latitude": 41.913778, "dpcapacity": 19.0, "id": 224.0, "longitude": -87.64884, "name": "Halsted St & Willow St"}}, {"geometry": {"type": "Point", "coordinates": [-87.64883, 41.919936]}, "type": "Feature", "id": 177, "properties": {"latitude": 41.919936, "dpcapacity": 15.0, "id": 225.0, "longitude": -87.64883, "name": "Halsted St & Dickens Ave"}}, {"geometry": {"type": "Point", "coordinates": [-87.658865, 41.939743]}, "type": "Feature", "id": 178, "properties": {"latitude": 41.939743, "dpcapacity": 15.0, "id": 226.0, "longitude": -87.658865, "name": "Racine Ave & Belmont Ave"}}, {"geometry": {"type": "Point", "coordinates": [-87.66394, 41.94815]}, "type": "Feature", "id": 179, "properties": {"latitude": 41.94815, "dpcapacity": 15.0, "id": 227.0, "longitude": -87.66394, "name": "Southport Ave & Waveland Ave"}}, {"geometry": {"type": "Point", "coordinates": [-87.6785, 41.9406]}, "type": "Feature", "id": 180, "properties": {"latitude": 41.9406, "dpcapacity": 11.0, "id": 228.0, "longitude": -87.6785, "name": "Damen Ave & Melrose Ave"}}, {"geometry": {"type": "Point", "coordinates": [-87.66402, 41.943739]}, "type": "Feature", "id": 181, "properties": {"latitude": 41.943739, "dpcapacity": 19.0, "id": 229.0, "longitude": -87.66402, "name": "Southport Ave & Roscoe St"}}, {"geometry": {"type": "Point", "coordinates": [-87.67097, 41.94334]}, "type": "Feature", "id": 182, "properties": {"latitude": 41.94334, "dpcapacity": 19.0, "id": 230.0, "longitude": -87.67097, "name": "Lincoln Ave & Roscoe St"}}, {"geometry": {"type": "Point", "coordinates": [-87.65464, 41.96167]}, "type": "Feature", "id": 183, "properties": {"latitude": 41.96167, "dpcapacity": 15.0, "id": 231.0, "longitude": -87.65464, "name": "Sheridan Rd & Montrose Ave"}}, {"geometry": {"type": "Point", "coordinates": [-87.645416, 41.947836]}, "type": "Feature", "id": 184, "properties": {"latitude": 41.947836, "dpcapacity": 15.0, "id": 232.0, "longitude": -87.645416, "name": "Pine Grove Ave & Addison St"}}, {"geometry": {"type": "Point", "coordinates": [-87.651148, 41.883004]}, "type": "Feature", "id": 185, "properties": {"latitude": 41.883004, "dpcapacity": 15.0, "id": 233.0, "longitude": -87.651148, "name": "Sangamon St & Washington Blvd"}}, {"geometry": {"type": "Point", "coordinates": [-87.666036, 41.961588]}, "type": "Feature", "id": 186, "properties": {"latitude": 41.961588, "dpcapacity": 19.0, "id": 234.0, "longitude": -87.666036, "name": "Clark St & Montrose Ave"}}, {"geometry": {"type": "Point", "coordinates": [-87.638517, 41.907576]}, "type": "Feature", "id": 187, "properties": {"latitude": 41.907576, "dpcapacity": 15.0, "id": 236.0, "longitude": -87.638517, "name": "Sedgwick St & Schiller St"}}, {"geometry": {"type": "Point", "coordinates": [-87.617, 41.842052]}, "type": "Feature", "id": 188, "properties": {"latitude": 41.842052, "dpcapacity": 15.0, "id": 237.0, "longitude": -87.617, "name": "Martin Luther King Dr & 29th St"}}, {"geometry": {"type": "Point", "coordinates": [-87.674101, 41.961626]}, "type": "Feature", "id": 189, "properties": {"latitude": 41.961626, "dpcapacity": 15.0, "id": 238.0, "longitude": -87.674101, "name": "Ravenswood Ave & Montrose Ave"}}, {"geometry": {"type": "Point", "coordinates": [-87.688487, 41.966555]}, "type": "Feature", "id": 190, "properties": {"latitude": 41.966555, "dpcapacity": 15.0, "id": 239.0, "longitude": -87.688487, "name": "Western Ave & Leland Ave"}}, {"geometry": {"type": "Point", "coordinates": [-87.654601, 41.95434]}, "type": "Feature", "id": 191, "properties": {"latitude": 41.95434, "dpcapacity": 11.0, "id": 240.0, "longitude": -87.654601, "name": "Sheridan Rd & Irving Park Rd"}}, {"geometry": {"type": "Point", "coordinates": [-87.65103, 41.871737]}, "type": "Feature", "id": 192, "properties": {"latitude": 41.871737, "dpcapacity": 15.0, "id": 241.0, "longitude": -87.65103, "name": "Morgan St & Polk St"}}, {"geometry": {"type": "Point", "coordinates": [-87.679028, 41.967094]}, "type": "Feature", "id": 193, "properties": {"latitude": 41.967094, "dpcapacity": 15.0, "id": 242.0, "longitude": -87.679028, "name": "Damen Ave & Leland Ave"}}, {"geometry": {"type": "Point", "coordinates": [-87.684146, 41.962391]}, "type": "Feature", "id": 194, "properties": {"latitude": 41.962391, "dpcapacity": 15.0, "id": 243.0, "longitude": -87.684146, "name": "Lincoln Ave & Leavitt St"}}, {"geometry": {"type": "Point", "coordinates": [-87.67393, 41.95469]}, "type": "Feature", "id": 195, "properties": {"latitude": 41.95469, "dpcapacity": 19.0, "id": 244.0, "longitude": -87.67393, "name": "Ravenswood Ave & Irving Park Rd"}}, {"geometry": {"type": "Point", "coordinates": [-87.649603, 41.961004]}, "type": "Feature", "id": 196, "properties": {"latitude": 41.961004, "dpcapacity": 15.0, "id": 245.0, "longitude": -87.649603, "name": "Clarendon Ave & Junior Ter"}}, {"geometry": {"type": "Point", "coordinates": [-87.668869, 41.956061]}, "type": "Feature", "id": 197, "properties": {"latitude": 41.956061, "dpcapacity": 11.0, "id": 246.0, "longitude": -87.668869, "name": "Ashland Ave & Belle Plaine Ave"}}, {"geometry": {"type": "Point", "coordinates": [-87.580715, 41.795212]}, "type": "Feature", "id": 198, "properties": {"latitude": 41.795212, "dpcapacity": 15.0, "id": 247.0, "longitude": -87.580715, "name": "Shore Drive & 55th St"}}, {"geometry": {"type": "Point", "coordinates": [-87.596471, 41.795264]}, "type": "Feature", "id": 199, "properties": {"latitude": 41.795264, "dpcapacity": 15.0, "id": 248.0, "longitude": -87.596471, "name": "Woodlawn Ave & 55th St"}}, {"geometry": {"type": "Point", "coordinates": [-87.638181, 41.963982]}, "type": "Feature", "id": 200, "properties": {"latitude": 41.963982, "dpcapacity": 15.0, "id": 249.0, "longitude": -87.638181, "name": "Montrose Harbor"}}, {"geometry": {"type": "Point", "coordinates": [-87.669807, 41.936083]}, "type": "Feature", "id": 201, "properties": {"latitude": 41.936083, "dpcapacity": 19.0, "id": 250.0, "longitude": -87.669807, "name": "Ashland Ave & Wellington Ave"}}, {"geometry": {"type": "Point", "coordinates": [-87.650001, 41.967968]}, "type": "Feature", "id": 202, "properties": {"latitude": 41.967968, "dpcapacity": 15.0, "id": 251.0, "longitude": -87.650001, "name": "Clarendon Ave & Leland Ave"}}, {"geometry": {"type": "Point", "coordinates": [-87.599383, 41.809835]}, "type": "Feature", "id": 203, "properties": {"latitude": 41.809835, "dpcapacity": 15.0, "id": 252.0, "longitude": -87.599383, "name": "Greenwood Ave & 47th St"}}, {"geometry": {"type": "Point", "coordinates": [-87.658857, 41.968873]}, "type": "Feature", "id": 204, "properties": {"latitude": 41.968873, "dpcapacity": 15.0, "id": 253.0, "longitude": -87.658857, "name": "Clifton Ave & Lawrence Ave"}}, {"geometry": {"type": "Point", "coordinates": [-87.648043, 41.954383]}, "type": "Feature", "id": 205, "properties": {"latitude": 41.954383, "dpcapacity": 15.0, "id": 254.0, "longitude": -87.648043, "name": "Pine Grove Ave & Irving Park Rd"}}, {"geometry": {"type": "Point", "coordinates": [-87.623041, 41.867888]}, "type": "Feature", "id": 206, "properties": {"latitude": 41.867888, "dpcapacity": 19.0, "id": 255.0, "longitude": -87.623041, "name": "Indiana Ave & Roosevelt Rd"}}, {"geometry": {"type": "Point", "coordinates": [-87.649993, 41.952833]}, "type": "Feature", "id": 207, "properties": {"latitude": 41.952833, "dpcapacity": 15.0, "id": 256.0, "longitude": -87.649993, "name": "Broadway & Sheridan Rd"}}, {"geometry": {"type": "Point", "coordinates": [-87.675112, 41.94911]}, "type": "Feature", "id": 208, "properties": {"latitude": 41.94911, "dpcapacity": 15.0, "id": 257.0, "longitude": -87.675112, "name": "Lincoln Ave & Waveland Ave"}}, {"geometry": {"type": "Point", "coordinates": [-87.685126, 41.930584]}, "type": "Feature", "id": 209, "properties": {"latitude": 41.930584, "dpcapacity": 19.0, "id": 258.0, "longitude": -87.685126, "name": "Logan Blvd & Elston Ave"}}, {"geometry": {"type": "Point", "coordinates": [-87.69723, 41.91855]}, "type": "Feature", "id": 210, "properties": {"latitude": 41.91855, "dpcapacity": 15.0, "id": 259.0, "longitude": -87.69723, "name": "California Ave & Francis Pl"}}, {"geometry": {"type": "Point", "coordinates": [-87.707857, 41.929567]}, "type": "Feature", "id": 211, "properties": {"latitude": 41.929567, "dpcapacity": 19.0, "id": 260.0, "longitude": -87.707857, "name": "Kedzie Ave & Milwaukee Ave"}}, {"geometry": {"type": "Point", "coordinates": [-87.669886, 41.871514]}, "type": "Feature", "id": 212, "properties": {"latitude": 41.871514, "dpcapacity": 15.0, "id": 261.0, "longitude": -87.669886, "name": "Hermitage Ave & Polk St"}}, {"geometry": {"type": "Point", "coordinates": [-87.645801, 41.827071]}, "type": "Feature", "id": 213, "properties": {"latitude": 41.827071, "dpcapacity": 11.0, "id": 262.0, "longitude": -87.645801, "name": "Halsted St & 37th St"}}, {"geometry": {"type": "Point", "coordinates": [-87.613533, 41.836208]}, "type": "Feature", "id": 214, "properties": {"latitude": 41.836208, "dpcapacity": 11.0, "id": 263.0, "longitude": -87.613533, "name": "Rhodes Ave & 32nd St"}}, {"geometry": {"type": "Point", "coordinates": [-87.622694, 41.886861]}, "type": "Feature", "id": 215, "properties": {"latitude": 41.886861, "dpcapacity": 19.0, "id": 264.0, "longitude": -87.622694, "name": "Stetson Ave & South Water St"}}, {"geometry": {"type": "Point", "coordinates": [-87.6071, 41.822985]}, "type": "Feature", "id": 216, "properties": {"latitude": 41.822985, "dpcapacity": 15.0, "id": 265.0, "longitude": -87.6071, "name": "Cottage Grove Ave & Oakwood Blvd"}}, {"geometry": {"type": "Point", "coordinates": [-87.591875, 41.809443]}, "type": "Feature", "id": 217, "properties": {"latitude": 41.809443, "dpcapacity": 15.0, "id": 267.0, "longitude": -87.591875, "name": "Lake Park Ave & 47th St"}}, {"geometry": {"type": "Point", "coordinates": [-87.626804, 41.911722]}, "type": "Feature", "id": 218, "properties": {"latitude": 41.911722, "dpcapacity": 15.0, "id": 268.0, "longitude": -87.626804, "name": "Lake Shore Dr & North Blvd"}}, {"geometry": {"type": "Point", "coordinates": [-87.606582, 41.816499]}, "type": "Feature", "id": 219, "properties": {"latitude": 41.816499, "dpcapacity": 11.0, "id": 271.0, "longitude": -87.606582, "name": "Cottage Grove Ave & 43rd St"}}, {"geometry": {"type": "Point", "coordinates": [-87.621857, 41.838842]}, "type": "Feature", "id": 220, "properties": {"latitude": 41.838842, "dpcapacity": 11.0, "id": 272.0, "longitude": -87.621857, "name": "Indiana Ave & 31st St"}}, {"geometry": {"type": "Point", "coordinates": [-87.623633, 41.857937]}, "type": "Feature", "id": 221, "properties": {"latitude": 41.857937, "dpcapacity": 15.0, "id": 273.0, "longitude": -87.623633, "name": "Michigan Ave & 18th St"}}, {"geometry": {"type": "Point", "coordinates": [-87.656625, 41.861267]}, "type": "Feature", "id": 222, "properties": {"latitude": 41.861267, "dpcapacity": 15.0, "id": 274.0, "longitude": -87.656625, "name": "Racine Ave & 15th St"}}, {"geometry": {"type": "Point", "coordinates": [-87.666507, 41.865234]}, "type": "Feature", "id": 223, "properties": {"latitude": 41.865234, "dpcapacity": 15.0, "id": 275.0, "longitude": -87.666507, "name": "Ashland Ave & 13th St"}}, {"geometry": {"type": "Point", "coordinates": [-87.6972, 41.91044]}, "type": "Feature", "id": 224, "properties": {"latitude": 41.91044, "dpcapacity": 11.0, "id": 276.0, "longitude": -87.6972, "name": "California Ave & North Ave"}}, {"geometry": {"type": "Point", "coordinates": [-87.666611, 41.891072]}, "type": "Feature", "id": 225, "properties": {"latitude": 41.891072, "dpcapacity": 15.0, "id": 277.0, "longitude": -87.666611, "name": "Ashland Ave & Grand Ave"}}, {"geometry": {"type": "Point", "coordinates": [-87.64129, 41.830629]}, "type": "Feature", "id": 226, "properties": {"latitude": 41.830629, "dpcapacity": 15.0, "id": 278.0, "longitude": -87.64129, "name": "Wallace Ave & 35th St"}}, {"geometry": {"type": "Point", "coordinates": [-87.647172, 41.830661]}, "type": "Feature", "id": 227, "properties": {"latitude": 41.830661, "dpcapacity": 15.0, "id": 279.0, "longitude": -87.647172, "name": "Halsted St & 35th St"}}, {"geometry": {"type": "Point", "coordinates": [-87.65114, 41.8378]}, "type": "Feature", "id": 228, "properties": {"latitude": 41.8378, "dpcapacity": 11.0, "id": 280.0, "longitude": -87.65114, "name": "Morgan St & 31st St"}}, {"geometry": {"type": "Point", "coordinates": [-87.685109, 41.84847]}, "type": "Feature", "id": 229, "properties": {"latitude": 41.84847, "dpcapacity": 15.0, "id": 281.0, "longitude": -87.685109, "name": "Western Ave & 24th St"}}, {"geometry": {"type": "Point", "coordinates": [-87.64693, 41.86458]}, "type": "Feature", "id": 230, "properties": {"latitude": 41.86458, "dpcapacity": 15.0, "id": 282.0, "longitude": -87.64693, "name": "Halsted St & Maxwell St"}}, {"geometry": {"type": "Point", "coordinates": [-87.631985, 41.87817]}, "type": "Feature", "id": 231, "properties": {"latitude": 41.87817, "dpcapacity": 23.0, "id": 283.0, "longitude": -87.631985, "name": "LaSalle St & Jackson Blvd"}}, {"geometry": {"type": "Point", "coordinates": [-87.62408, 41.87785]}, "type": "Feature", "id": 232, "properties": {"latitude": 41.87785, "dpcapacity": 23.0, "id": 284.0, "longitude": -87.62408, "name": "Michigan Ave & Jackson Blvd"}}, {"geometry": {"type": "Point", "coordinates": [-87.67203, 41.89113]}, "type": "Feature", "id": 233, "properties": {"latitude": 41.89113, "dpcapacity": 15.0, "id": 285.0, "longitude": -87.67203, "name": "Wood St & Grand Ave"}}, {"geometry": {"type": "Point", "coordinates": [-87.634793, 41.878724]}, "type": "Feature", "id": 234, "properties": {"latitude": 41.878724, "dpcapacity": 15.0, "id": 286.0, "longitude": -87.634793, "name": "Franklin St & Quincy St"}}, {"geometry": {"type": "Point", "coordinates": [-87.635185, 41.881131]}, "type": "Feature", "id": 235, "properties": {"latitude": 41.881131, "dpcapacity": 23.0, "id": 287.0, "longitude": -87.635185, "name": "Franklin St & Arcade Pl"}}, {"geometry": {"type": "Point", "coordinates": [-87.64368, 41.91797]}, "type": "Feature", "id": 236, "properties": {"latitude": 41.91797, "dpcapacity": 11.0, "id": 288.0, "longitude": -87.64368, "name": "Larrabee St & Armitage Ave"}}, {"geometry": {"type": "Point", "coordinates": [-87.634664, 41.912202]}, "type": "Feature", "id": 237, "properties": {"latitude": 41.912202, "dpcapacity": 19.0, "id": 289.0, "longitude": -87.634664, "name": "Wells St & Concord Ln"}}, {"geometry": {"type": "Point", "coordinates": [-87.707322, 41.921525]}, "type": "Feature", "id": 238, "properties": {"latitude": 41.921525, "dpcapacity": 15.0, "id": 290.0, "longitude": -87.707322, "name": "Kedzie Ave & Palmer Ct"}}, {"geometry": {"type": "Point", "coordinates": [-87.63483, 41.906724]}, "type": "Feature", "id": 239, "properties": {"latitude": 41.906724, "dpcapacity": 19.0, "id": 291.0, "longitude": -87.63483, "name": "Wells St & Evergreen Ave"}}, {"geometry": {"type": "Point", "coordinates": [-87.664199, 41.957081]}, "type": "Feature", "id": 240, "properties": {"latitude": 41.957081, "dpcapacity": 11.0, "id": 292.0, "longitude": -87.664199, "name": "Southport Ave & Clark St"}}, {"geometry": {"type": "Point", "coordinates": [-87.658774, 41.965287]}, "type": "Feature", "id": 241, "properties": {"latitude": 41.965287, "dpcapacity": 19.0, "id": 293.0, "longitude": -87.658774, "name": "Broadway & Wilson Ave"}}, {"geometry": {"type": "Point", "coordinates": [-87.659753, 41.978353]}, "type": "Feature", "id": 242, "properties": {"latitude": 41.978353, "dpcapacity": 15.0, "id": 294.0, "longitude": -87.659753, "name": "Broadway & Berwyn Ave"}}, {"geometry": {"type": "Point", "coordinates": [-87.659637, 41.972972]}, "type": "Feature", "id": 243, "properties": {"latitude": 41.972972, "dpcapacity": 15.0, "id": 295.0, "longitude": -87.659637, "name": "Broadway & Argyle St"}}, {"geometry": {"type": "Point", "coordinates": [-87.645451, 41.940106]}, "type": "Feature", "id": 244, "properties": {"latitude": 41.940106, "dpcapacity": 15.0, "id": 296.0, "longitude": -87.645451, "name": "Broadway & Belmont Ave"}}, {"geometry": {"type": "Point", "coordinates": [-87.671387, 41.961507]}, "type": "Feature", "id": 245, "properties": {"latitude": 41.961507, "dpcapacity": 15.0, "id": 297.0, "longitude": -87.671387, "name": "Paulina St & Montrose Ave"}}, {"geometry": {"type": "Point", "coordinates": [-87.679259, 41.955927]}, "type": "Feature", "id": 246, "properties": {"latitude": 41.955927, "dpcapacity": 15.0, "id": 298.0, "longitude": -87.679259, "name": "Lincoln Ave & Belle Plaine Ave"}}, {"geometry": {"type": "Point", "coordinates": [-87.648917, 41.943662]}, "type": "Feature", "id": 247, "properties": {"latitude": 41.943662, "dpcapacity": 15.0, "id": 299.0, "longitude": -87.648917, "name": "Halsted St & Roscoe St"}}, {"geometry": {"type": "Point", "coordinates": [-87.644094, 41.937739]}, "type": "Feature", "id": 248, "properties": {"latitude": 41.937739, "dpcapacity": 15.0, "id": 300.0, "longitude": -87.644094, "name": "Broadway & Barry Ave"}}, {"geometry": {"type": "Point", "coordinates": [-87.631501, 41.907993]}, "type": "Feature", "id": 249, "properties": {"latitude": 41.907993, "dpcapacity": 19.0, "id": 301.0, "longitude": -87.631501, "name": "Clark St & Schiller St"}}, {"geometry": {"type": "Point", "coordinates": [-87.653833, 41.928712]}, "type": "Feature", "id": 250, "properties": {"latitude": 41.928712, "dpcapacity": 19.0, "id": 302.0, "longitude": -87.653833, "name": "Sheffield Ave & Wrightwood Ave"}}, {"geometry": {"type": "Point", "coordinates": [-87.64598, 41.945512]}, "type": "Feature", "id": 251, "properties": {"latitude": 41.945512, "dpcapacity": 15.0, "id": 303.0, "longitude": -87.64598, "name": "Broadway & Cornelia Ave"}}, {"geometry": {"type": "Point", "coordinates": [-87.649634, 41.949333]}, "type": "Feature", "id": 252, "properties": {"latitude": 41.949333, "dpcapacity": 15.0, "id": 304.0, "longitude": -87.649634, "name": "Halsted St & Waveland Ave"}}, {"geometry": {"type": "Point", "coordinates": [-87.687275, 41.902893]}, "type": "Feature", "id": 253, "properties": {"latitude": 41.902893, "dpcapacity": 15.0, "id": 305.0, "longitude": -87.687275, "name": "Western Ave & Division St"}}, {"geometry": {"type": "Point", "coordinates": [-87.65423, 41.9584]}, "type": "Feature", "id": 254, "properties": {"latitude": 41.9584, "dpcapacity": 15.0, "id": 306.0, "longitude": -87.65423, "name": "Sheridan Rd & Buena Ave"}}, {"geometry": {"type": "Point", "coordinates": [-87.663257, 41.921004]}, "type": "Feature", "id": 255, "properties": {"latitude": 41.921004, "dpcapacity": 15.0, "id": 307.0, "longitude": -87.663257, "name": "Southport Ave & Clybourn Ave"}}, {"geometry": {"type": "Point", "coordinates": [-87.679618, 41.943403]}, "type": "Feature", "id": 256, "properties": {"latitude": 41.943403, "dpcapacity": 11.0, "id": 308.0, "longitude": -87.679618, "name": "Seeley Ave & Roscoe St"}}, {"geometry": {"type": "Point", "coordinates": [-87.682437, 41.917805]}, "type": "Feature", "id": 257, "properties": {"latitude": 41.917805, "dpcapacity": 11.0, "id": 309.0, "longitude": -87.682437, "name": "Leavitt St & Armitage Ave"}}, {"geometry": {"type": "Point", "coordinates": [-87.677855, 41.920082]}, "type": "Feature", "id": 258, "properties": {"latitude": 41.920082, "dpcapacity": 11.0, "id": 310.0, "longitude": -87.677855, "name": "Damen Ave & Charleston St"}}, {"geometry": {"type": "Point", "coordinates": [-87.68651, 41.96583]}, "type": "Feature", "id": 259, "properties": {"latitude": 41.96583, "dpcapacity": 15.0, "id": 311.0, "longitude": -87.68651, "name": "Lincoln Ave & Eastwood Ave"}}, {"geometry": {"type": "Point", "coordinates": [-87.649519, 41.957879]}, "type": "Feature", "id": 260, "properties": {"latitude": 41.957879, "dpcapacity": 15.0, "id": 312.0, "longitude": -87.649519, "name": "Clarendon Ave & Gordon Ter"}}, {"geometry": {"type": "Point", "coordinates": [-87.638973, 41.925858]}, "type": "Feature", "id": 261, "properties": {"latitude": 41.925858, "dpcapacity": 19.0, "id": 313.0, "longitude": -87.638973, "name": "Lakeview Ave & Fullerton Pkwy"}}, {"geometry": {"type": "Point", "coordinates": [-87.673567, 41.957921]}, "type": "Feature", "id": 262, "properties": {"latitude": 41.957921, "dpcapacity": 15.0, "id": 314.0, "longitude": -87.673567, "name": "Ravenswood Ave & Berteau Ave"}}, {"geometry": {"type": "Point", "coordinates": [-87.682779, 41.906717]}, "type": "Feature", "id": 263, "properties": {"latitude": 41.906717, "dpcapacity": 11.0, "id": 315.0, "longitude": -87.682779, "name": "Leavitt St & Hirsch St"}}, {"geometry": {"type": "Point", "coordinates": [-87.679258, 41.96325]}, "type": "Feature", "id": 264, "properties": {"latitude": 41.96325, "dpcapacity": 19.0, "id": 316.0, "longitude": -87.679258, "name": "Damen Ave & Sunnyside Ave"}}, {"geometry": {"type": "Point", "coordinates": [-87.671045, 41.869154]}, "type": "Feature", "id": 265, "properties": {"latitude": 41.869154, "dpcapacity": 15.0, "id": 317.0, "longitude": -87.671045, "name": "Wood St & Taylor St"}}, {"geometry": {"type": "Point", "coordinates": [-87.664358, 41.954177]}, "type": "Feature", "id": 266, "properties": {"latitude": 41.954177, "dpcapacity": 15.0, "id": 318.0, "longitude": -87.664358, "name": "Southport Ave & Irving Park Rd"}}, {"geometry": {"type": "Point", "coordinates": [-87.665939, 41.932595]}, "type": "Feature", "id": 267, "properties": {"latitude": 41.932595, "dpcapacity": 15.0, "id": 319.0, "longitude": -87.665939, "name": "Greenview Ave & Diversey Pkwy"}}, {"geometry": {"type": "Point", "coordinates": [-87.661501, 41.872187]}, "type": "Feature", "id": 268, "properties": {"latitude": 41.872187, "dpcapacity": 15.0, "id": 320.0, "longitude": -87.661501, "name": "Loomis St & Lexington St"}}, {"geometry": {"type": "Point", "coordinates": [-87.626106, 41.871962]}, "type": "Feature", "id": 269, "properties": {"latitude": 41.871962, "dpcapacity": 19.0, "id": 321.0, "longitude": -87.626106, "name": "Wabash Ave & 8th St"}}, {"geometry": {"type": "Point", "coordinates": [-87.594747, 41.799568]}, "type": "Feature", "id": 270, "properties": {"latitude": 41.799568, "dpcapacity": 15.0, "id": 322.0, "longitude": -87.594747, "name": "Kimbark Ave & 53rd St"}}, {"geometry": {"type": "Point", "coordinates": [-87.654691, 41.969517]}, "type": "Feature", "id": 271, "properties": {"latitude": 41.969517, "dpcapacity": 15.0, "id": 323.0, "longitude": -87.654691, "name": "Sheridan Rd & Lawrence Ave"}}, {"geometry": {"type": "Point", "coordinates": [-87.638742, 41.93132]}, "type": "Feature", "id": 272, "properties": {"latitude": 41.93132, "dpcapacity": 15.0, "id": 324.0, "longitude": -87.638742, "name": "Stockton Dr & Wrightwood Ave"}}, {"geometry": {"type": "Point", "coordinates": [-87.668365, 41.973385]}, "type": "Feature", "id": 273, "properties": {"latitude": 41.973385, "dpcapacity": 15.0, "id": 325.0, "longitude": -87.668365, "name": "Clark St & Winnemac Ave"}}, {"geometry": {"type": "Point", "coordinates": [-87.667429, 41.967096]}, "type": "Feature", "id": 274, "properties": {"latitude": 41.967096, "dpcapacity": 11.0, "id": 326.0, "longitude": -87.667429, "name": "Clark St & Leland Ave"}}, {"geometry": {"type": "Point", "coordinates": [-87.653714, 41.921687]}, "type": "Feature", "id": 275, "properties": {"latitude": 41.921687, "dpcapacity": 19.0, "id": 327.0, "longitude": -87.653714, "name": "Sheffield Ave & Webster Ave"}}, {"geometry": {"type": "Point", "coordinates": [-87.601334, 41.788746]}, "type": "Feature", "id": 276, "properties": {"latitude": 41.788746, "dpcapacity": 15.0, "id": 328.0, "longitude": -87.601334, "name": "Ellis Ave & 58th St"}}, {"geometry": {"type": "Point", "coordinates": [-87.63625, 41.932684]}, "type": "Feature", "id": 277, "properties": {"latitude": 41.932684, "dpcapacity": 15.0, "id": 329.0, "longitude": -87.63625, "name": "Lake Shore Dr & Diversey Pkwy"}}, {"geometry": {"type": "Point", "coordinates": [-87.673308, 41.946176]}, "type": "Feature", "id": 278, "properties": {"latitude": 41.946176, "dpcapacity": 19.0, "id": 330.0, "longitude": -87.673308, "name": "Lincoln Ave & Addison St"}}, {"geometry": {"type": "Point", "coordinates": [-87.648568, 41.90854]}, "type": "Feature", "id": 279, "properties": {"latitude": 41.90854, "dpcapacity": 19.0, "id": 331.0, "longitude": -87.648568, "name": "Halsted St & Blackhawk St"}}, {"geometry": {"type": "Point", "coordinates": [-87.648747, 41.933341]}, "type": "Feature", "id": 280, "properties": {"latitude": 41.933341, "dpcapacity": 15.0, "id": 332.0, "longitude": -87.648747, "name": "Halsted St & Diversey Pkwy"}}, {"geometry": {"type": "Point", "coordinates": [-87.667252, 41.907066]}, "type": "Feature", "id": 281, "properties": {"latitude": 41.907066, "dpcapacity": 15.0, "id": 333.0, "longitude": -87.667252, "name": "Ashland Ave & Blackhawk St"}}, {"geometry": {"type": "Point", "coordinates": [-87.639192, 41.940775]}, "type": "Feature", "id": 282, "properties": {"latitude": 41.940775, "dpcapacity": 19.0, "id": 334.0, "longitude": -87.639192, "name": "Lake Shore Dr & Belmont Ave"}}, {"geometry": {"type": "Point", "coordinates": [-87.618034, 41.831379]}, "type": "Feature", "id": 283, "properties": {"latitude": 41.831379, "dpcapacity": 15.0, "id": 335.0, "longitude": -87.618034, "name": "Calumet Ave & 35th St"}}, {"geometry": {"type": "Point", "coordinates": [-87.606755, 41.809855]}, "type": "Feature", "id": 284, "properties": {"latitude": 41.809855, "dpcapacity": 15.0, "id": 336.0, "longitude": -87.606755, "name": "Cottage Grove Ave & 47th St"}}, {"geometry": {"type": "Point", "coordinates": [-87.630931, 41.896544]}, "type": "Feature", "id": 285, "properties": {"latitude": 41.896544, "dpcapacity": 19.0, "id": 337.0, "longitude": -87.630931, "name": "Clark St & Chicago Ave"}}, {"geometry": {"type": "Point", "coordinates": [-87.619407, 41.857611]}, "type": "Feature", "id": 286, "properties": {"latitude": 41.857611, "dpcapacity": 15.0, "id": 338.0, "longitude": -87.619407, "name": "Calumet Ave & 18th St"}}, {"geometry": {"type": "Point", "coordinates": [-87.645143, 41.838198]}, "type": "Feature", "id": 287, "properties": {"latitude": 41.838198, "dpcapacity": 11.0, "id": 339.0, "longitude": -87.645143, "name": "Emerald Ave & 31st St"}}, {"geometry": {"type": "Point", "coordinates": [-87.643118, 41.929546]}, "type": "Feature", "id": 288, "properties": {"latitude": 41.929546, "dpcapacity": 15.0, "id": 340.0, "longitude": -87.643118, "name": "Clark St & Wrightwood Ave"}}, {"geometry": {"type": "Point", "coordinates": [-87.607267, 41.866095]}, "type": "Feature", "id": 289, "properties": {"latitude": 41.866095, "dpcapacity": 19.0, "id": 341.0, "longitude": -87.607267, "name": "Adler Planetarium"}}, {"geometry": {"type": "Point", "coordinates": [-87.673688, 41.871262]}, "type": "Feature", "id": 290, "properties": {"latitude": 41.871262, "dpcapacity": 15.0, "id": 342.0, "longitude": -87.673688, "name": "Wolcott Ave & Polk St"}}, {"geometry": {"type": "Point", "coordinates": [-87.658971, 41.928887]}, "type": "Feature", "id": 291, "properties": {"latitude": 41.928887, "dpcapacity": 15.0, "id": 343.0, "longitude": -87.658971, "name": "Racine Ave & Wrightwood Ave"}}, {"geometry": {"type": "Point", "coordinates": [-87.676335, 41.968641]}, "type": "Feature", "id": 292, "properties": {"latitude": 41.968641, "dpcapacity": 15.0, "id": 344.0, "longitude": -87.676335, "name": "Wolcott Ave & Lawrence Ave"}}, {"geometry": {"type": "Point", "coordinates": [-87.587782, 41.793242]}, "type": "Feature", "id": 293, "properties": {"latitude": 41.793242, "dpcapacity": 15.0, "id": 345.0, "longitude": -87.587782, "name": "Lake Park Ave & 56th St"}}, {"geometry": {"type": "Point", "coordinates": [-87.661206, 41.88283]}, "type": "Feature", "id": 294, "properties": {"latitude": 41.88283, "dpcapacity": 15.0, "id": 346.0, "longitude": -87.661206, "name": "Ada St & Washington Blvd"}}, {"geometry": {"type": "Point", "coordinates": [-87.6687, 41.950687]}, "type": "Feature", "id": 295, "properties": {"latitude": 41.950687, "dpcapacity": 15.0, "id": 347.0, "longitude": -87.6687, "name": "Ashland Ave & Grace St"}}, {"geometry": {"type": "Point", "coordinates": [-87.695445, 41.854016]}, "type": "Feature", "id": 296, "properties": {"latitude": 41.854016, "dpcapacity": 15.0, "id": 348.0, "longitude": -87.695445, "name": "California Ave & 21st St"}}, {"geometry": {"type": "Point", "coordinates": [-87.649077, 41.929143]}, "type": "Feature", "id": 297, "properties": {"latitude": 41.929143, "dpcapacity": 15.0, "id": 349.0, "longitude": -87.649077, "name": "Halsted St & Wrightwood Ave"}}, {"geometry": {"type": "Point", "coordinates": [-87.667747, 41.895966]}, "type": "Feature", "id": 298, "properties": {"latitude": 41.895966, "dpcapacity": 15.0, "id": 350.0, "longitude": -87.667747, "name": "Ashland Ave & Chicago Ave"}}, {"geometry": {"type": "Point", "coordinates": [-87.606615, 41.803038]}, "type": "Feature", "id": 299, "properties": {"latitude": 41.803038, "dpcapacity": 15.0, "id": 351.0, "longitude": -87.606615, "name": "Cottage Grove Ave & 51st St"}}]}